City_ID,City,Country,Lat,Lng,Max Temp,Humidity,Cloudiness,Wind Speed,Date
0,Bluff,NZ,-46.6,168.3333,47.8,88,100,10.71,2022-10-26 17:44:00
1,Tiksi,RU,71.6872,128.8694,0.63,99,68,6.4,2022-10-26 17:44:42
2,Bengkulu,ID,-3.8004,102.2655,74.41,91,100,4.41,2022-10-26 17:44:43
3,Atuona,PF,-9.8,-139.0333,77.13,72,15,18.68,2022-10-26 17:44:43
4,Taoudenni,ML,22.6783,-3.9836,88.9,10,57,9.22,2022-10-26 17:44:44
5,Jamestown,US,42.097,-79.2353,56.01,92,100,9.22,2022-10-26 17:41:28
6,Carnarvon,AU,-24.8667,113.6333,65.93,68,0,24.09,2022-10-26 17:44:49
7,Hirara,JP,24.8,125.2833,77.11,67,93,17.69,2022-10-26 17:44:50
8,Holsted,DK,55.5109,8.9187,57.31,89,99,11.18,2022-10-26 17:44:51
9,Provideniya,RU,64.3833,-173.3,18.12,88,12,7.47,2022-10-26 17:44:52
10,Ushuaia,AR,-54.8,-68.3,49.62,71,40,8.05,2022-10-26 17:45:07
11,Punta Arenas,CL,-53.15,-70.9167,51.91,54,40,35.68,2022-10-26 17:45:08
12,New Norfolk,AU,-42.7826,147.0587,54.91,87,100,3.2,2022-10-26 17:45:08
13,The Pas,CA,53.8251,-101.2541,30.22,74,0,13.8,2022-10-26 17:45:09
14,Pevek,RU,69.7008,170.3133,-5.96,98,31,5.46,2022-10-26 17:45:10
15,Upernavik,GL,72.7868,-56.1549,9.7,91,68,5.57,2022-10-26 17:45:10
16,Labuhan,ID,-6.8844,112.2051,76.6,88,100,12.68,2022-10-26 17:45:11
17,Bambous Virieux,MU,-20.3428,57.7575,73.65,78,75,11.5,2022-10-26 17:45:11
18,Narsaq,GL,60.9167,-46.05,30.42,94,100,5.86,2022-10-26 17:45:12
19,Tuktoyaktuk,CA,69.4541,-133.0374,14.0,85,20,20.71,2022-10-26 17:44:04
20,Arraial Do Cabo,BR,-22.9661,-42.0278,76.96,65,40,19.57,2022-10-26 17:45:13
21,Namwala,ZM,-15.7504,26.4384,84.45,27,36,4.72,2022-10-26 17:45:14
22,Dubna,RU,56.7333,37.1667,35.31,79,100,7.14,2022-10-26 17:43:39
23,Chuy,UY,-33.6971,-53.4616,70.21,84,100,13.4,2022-10-26 17:45:15
24,Adrar,MR,20.5022,-10.0711,88.21,9,95,9.91,2022-10-26 17:45:15
25,Goderich,CA,43.7501,-81.7165,53.91,93,100,16.11,2022-10-26 17:45:26
26,Rikitea,PF,-23.1203,-134.9692,73.22,84,90,15.37,2022-10-26 17:45:30
27,Panguna,PG,-6.3164,155.4848,68.85,95,84,1.03,2022-10-26 17:45:33
28,Cherskiy,RU,68.75,161.3,4.03,98,97,4.16,2022-10-26 17:45:33
29,Praia Da Vitoria,PT,38.7333,-27.0667,59.25,88,40,19.39,2022-10-26 17:45:35
30,Pacific Grove,US,36.6177,-121.9166,59.65,74,0,8.01,2022-10-26 17:45:39
31,Aksu,CN,41.1231,80.2644,53.87,30,100,3.76,2022-10-26 17:45:41
32,Vila Franca Do Campo,PT,37.7167,-25.4333,66.61,77,70,22.1,2022-10-26 17:45:41
33,Beringovskiy,RU,63.05,179.3167,27.63,73,73,7.92,2022-10-26 17:41:33
34,Puerto Ayora,EC,-0.7393,-90.3518,73.36,91,93,8.99,2022-10-26 17:45:42
35,Bethel,US,41.3712,-73.414,73.49,71,100,3.44,2022-10-26 17:45:43
36,Mataura,NZ,-46.1927,168.8643,47.48,100,100,1.83,2022-10-26 17:45:44
37,Sur,OM,22.5667,59.5289,80.64,59,0,4.5,2022-10-26 17:45:45
38,Lata,PT,40.1629,-8.3327,68.81,73,96,4.32,2022-10-26 17:45:46
39,La Orilla,MX,17.9833,-102.2333,84.74,69,55,5.26,2022-10-26 17:45:46
40,Albany,US,42.6001,-73.9662,74.62,77,55,4.0,2022-10-26 17:45:47
41,Ancud,CL,-41.8697,-73.8203,53.78,73,37,10.54,2022-10-26 17:45:51
42,Ilulissat,GL,69.2167,-51.1,26.62,63,75,3.44,2022-10-26 17:45:56
43,Coromandel,BR,-18.4733,-47.2003,93.51,19,14,2.48,2022-10-26 17:45:57
44,Saint-Philippe,RE,-21.3585,55.7679,72.99,86,77,15.82,2022-10-26 17:45:58
45,Nabire,ID,-3.3667,135.4833,75.65,92,91,3.06,2022-10-26 17:46:59
46,Tuatapere,NZ,-46.1333,167.6833,47.68,98,100,4.34,2022-10-26 17:47:00
47,Bubaque,GW,11.2833,-15.8333,85.62,63,1,2.89,2022-10-26 17:47:02
48,Talnakh,RU,69.4865,88.3972,3.81,98,100,4.7,2022-10-26 17:47:02
49,Uray,RU,60.1247,64.7758,27.91,73,10,4.41,2022-10-26 17:47:03
50,Plettenberg Bay,ZA,-34.0527,23.3716,61.7,87,0,9.48,2022-10-26 17:47:05
51,Methoni,GR,36.8197,21.7049,70.21,63,0,3.15,2022-10-26 17:47:05
52,Dikson,RU,73.5069,80.5464,26.11,63,100,5.59,2022-10-26 17:47:07
53,Nanortalik,GL,60.1432,-45.2371,35.08,93,100,4.88,2022-10-26 17:47:08
54,Cabo San Lucas,MX,22.8909,-109.9124,84.61,59,7,3.0,2022-10-26 17:43:33
55,Vaini,TO,-21.2,-175.2,69.96,88,40,4.61,2022-10-26 17:45:49
56,Castro,BR,-24.7911,-50.0119,78.3,36,0,7.34,2022-10-26 17:47:11
57,Acarau,BR,-2.8856,-40.12,85.84,56,87,17.52,2022-10-26 17:47:11
58,Suphan Buri,TH,14.4742,100.1222,76.05,91,99,6.89,2022-10-26 17:47:13
59,Payo,ID,-3.7508,103.6372,72.66,94,98,1.72,2022-10-26 17:47:15
60,Kruisfontein,ZA,-34.0033,24.7314,64.89,80,49,13.4,2022-10-26 17:47:16
61,Prince Rupert,CA,54.3161,-130.3201,49.69,91,100,21.85,2022-10-26 17:47:17
62,Port Elizabeth,ZA,-33.918,25.5701,67.1,77,75,11.5,2022-10-26 17:47:19
63,Pisco,PE,-13.7,-76.2167,66.02,72,0,11.5,2022-10-26 17:47:19
64,Hofn,IS,64.2539,-15.2082,46.42,71,75,13.8,2022-10-26 17:47:20
65,East London,ZA,-33.0153,27.9116,65.34,94,75,5.75,2022-10-26 17:47:21
66,Clyde River,CA,70.4692,-68.5914,14.23,85,100,18.41,2022-10-26 17:47:26
67,Torbay,CA,47.6666,-52.7314,63.27,89,100,12.66,2022-10-26 17:45:21
68,Kodiak,US,57.79,-152.4072,42.31,52,20,19.57,2022-10-26 17:47:28
69,Sabang,ID,5.8933,95.3214,80.98,79,100,11.48,2022-10-26 17:47:30
70,Ribeira Grande,PT,38.5167,-28.7,58.77,88,75,13.8,2022-10-26 17:47:31
71,Yellowknife,CA,62.456,-114.3525,27.12,100,100,2.3,2022-10-26 17:47:33
72,Hermanus,ZA,-34.4187,19.2345,65.8,78,0,12.44,2022-10-26 17:47:34
73,Bilma,NE,18.6853,12.9164,78.22,17,0,4.43,2022-10-26 17:47:34
74,Bredasdorp,ZA,-34.5322,20.0403,60.44,86,0,14.12,2022-10-26 17:47:35
75,Whitehorse,CA,60.7161,-135.0538,29.17,86,100,13.8,2022-10-26 17:47:35
76,Baena,ES,37.6167,-4.3225,79.43,27,97,2.44,2022-10-26 17:47:36
77,Male,MV,4.1748,73.5089,82.35,83,40,6.91,2022-10-26 17:44:15
78,Cruzeiro Do Sul,BR,-29.5128,-51.9853,96.53,39,63,8.48,2022-10-26 17:47:38
79,Calella,ES,41.618,2.6678,74.21,87,90,0.54,2022-10-26 17:47:40
80,Busselton,AU,-33.65,115.3333,51.12,64,80,9.42,2022-10-26 17:45:32
81,Erdenet,MN,49.0333,104.0833,18.07,73,75,2.84,2022-10-26 17:47:43
82,Faanui,PF,-16.4833,-151.75,76.42,89,100,20.98,2022-10-26 17:47:45
83,Wewak,PG,-3.5534,143.6268,79.18,80,62,0.4,2022-10-26 17:47:45
84,Ahipara,NZ,-35.1667,173.1667,54.37,89,99,6.78,2022-10-26 17:47:47
85,Mweka,CD,-4.85,21.5667,68.83,90,100,0.76,2022-10-26 17:47:48
86,Toora-Khem,RU,52.4675,96.11,19.04,58,72,1.54,2022-10-26 17:47:49
87,Mackay,AU,-21.15,149.2,70.68,78,38,6.46,2022-10-26 17:47:50
88,Cape Town,ZA,-33.9258,18.4232,66.27,71,0,14.97,2022-10-26 17:47:50
89,Beidao,CN,34.5686,105.8933,53.47,89,98,3.8,2022-10-26 17:47:51
90,Port Alfred,ZA,-33.5906,26.891,65.17,90,99,3.0,2022-10-26 17:47:52
91,Qaanaaq,GL,77.484,-69.3632,6.91,93,100,7.23,2022-10-26 17:47:53
92,Hobart,AU,-42.8794,147.3294,55.26,98,100,9.22,2022-10-26 17:43:01
93,Chitungwiza,ZW,-18.0127,31.0756,71.35,42,53,6.08,2022-10-26 17:48:00
94,Gamboma,CG,-1.8764,15.8644,75.13,89,77,3.6,2022-10-26 17:49:00
95,Fria,GN,10.4167,-13.5833,83.21,72,2,1.74,2022-10-26 17:49:02
96,Barrow,US,71.2906,-156.7887,17.62,86,100,4.61,2022-10-26 17:49:03
97,Sindor,RU,62.8629,51.8905,31.24,72,100,8.25,2022-10-26 17:49:03
98,Khatanga,RU,71.9667,102.5,3.22,96,100,8.21,2022-10-26 17:49:05
99,Mayo,US,38.8876,-76.5119,64.96,90,75,5.75,2022-10-26 17:44:57
100,Missoula,US,47.0166,-113.8009,30.16,80,97,3.94,2022-10-26 17:49:06
101,Pontal Do Parana,BR,-25.6533,-48.5128,84.97,67,1,10.29,2022-10-26 17:49:07
102,Hualmay,PE,-11.0964,-77.6139,67.44,67,14,10.07,2022-10-26 17:49:08
103,Alanya,TR,36.5438,31.9998,66.33,42,0,4.59,2022-10-26 17:49:10
104,Katsuura,JP,35.1333,140.3,55.63,64,0,8.97,2022-10-26 17:45:46
105,Lorengau,PG,-2.0226,147.2712,80.76,75,67,2.08,2022-10-26 17:49:12
106,Staryy Nadym,RU,65.6118,72.6842,19.9,91,48,11.39,2022-10-26 17:49:14
107,Henties Bay,NA,-22.116,14.2845,59.81,89,13,6.91,2022-10-26 17:49:15
108,Mezen,RU,65.8522,44.24,30.58,81,98,11.21,2022-10-26 17:49:16
109,Lompoc,US,34.6391,-120.4579,67.78,85,0,11.5,2022-10-26 17:44:20
110,Peniche,PT,39.3558,-9.3811,74.08,83,94,15.82,2022-10-26 17:49:18
111,Dongsheng,CN,39.8161,109.9776,41.2,56,0,7.63,2022-10-26 17:49:19
112,Georgetown,MY,5.4112,100.3354,78.73,93,40,3.44,2022-10-26 17:47:06
113,Honiara,SB,-9.4333,159.95,76.93,87,55,3.76,2022-10-26 17:49:19
114,Songea,TZ,-10.6833,35.65,72.75,38,17,5.68,2022-10-26 17:49:20
115,Buraydah,SA,26.326,43.975,82.85,13,55,11.83,2022-10-26 17:49:21
116,Fairbanks,US,64.8378,-147.7164,16.14,75,75,10.36,2022-10-26 17:46:19
117,Merauke,ID,-8.4667,140.3333,80.22,77,99,3.38,2022-10-26 17:49:23
118,Padang,ID,-0.9492,100.3543,76.69,86,100,2.08,2022-10-26 17:49:23
119,Price,US,39.5994,-110.8107,36.66,93,100,3.44,2022-10-26 17:49:25
120,Shimoda,JP,34.6667,138.95,52.11,67,0,5.53,2022-10-26 17:48:18
121,Itarema,BR,-2.9248,-39.9167,85.51,54,88,15.9,2022-10-26 17:49:26
122,Severo-Kurilsk,RU,50.6789,156.125,37.69,78,8,4.83,2022-10-26 17:49:27
123,Hithadhoo,MV,-0.6,73.0833,82.6,74,99,11.99,2022-10-26 17:49:27
124,Souillac,MU,-20.5167,57.5167,73.78,78,75,11.5,2022-10-26 17:48:37
125,Kerman,IR,30.2832,57.0788,64.26,19,0,11.5,2022-10-26 17:49:30
126,Husavik,IS,66.0449,-17.3389,37.53,95,100,6.29,2022-10-26 17:49:31
127,Kapaa,US,22.0752,-159.319,77.09,91,100,20.71,2022-10-26 17:49:34
128,Butaritari,KI,3.0707,172.7902,81.3,76,84,13.27,2022-10-26 17:49:35
129,Salinopolis,BR,-0.6136,-47.3561,84.31,65,100,12.55,2022-10-26 17:49:36
130,Asau,RO,46.4333,26.4,56.32,80,29,3.04,2022-10-26 17:48:26
131,Umm Kaddadah,SD,13.6017,26.6876,83.14,18,49,11.92,2022-10-26 17:49:38
132,Keti Bandar,PK,24.1447,67.4497,80.29,75,0,10.54,2022-10-26 17:49:39
133,Sulangan,PH,11.1373,123.7228,82.33,80,100,13.85,2022-10-26 17:49:40
134,Norman Wells,CA,65.282,-126.8329,17.64,79,75,26.46,2022-10-26 17:49:40
135,Guerrero Negro,MX,27.9769,-114.0611,72.36,51,39,10.78,2022-10-26 17:49:41
136,Kuala Terengganu,MY,5.3302,103.1408,78.75,94,20,3.44,2022-10-26 17:49:45
137,Katobu,ID,-4.9408,122.5276,75.9,90,84,2.01,2022-10-26 17:49:47
138,Thompson,CA,55.7435,-97.8558,23.16,93,75,2.3,2022-10-26 17:49:48
139,Kumluca,TR,36.3703,30.2869,72.41,45,0,5.84,2022-10-26 17:49:49
140,Anloga,GH,5.7947,0.8973,81.63,77,92,8.48,2022-10-26 17:49:49
141,Veraval,IN,20.9,70.3667,78.55,67,0,7.34,2022-10-26 17:50:50
142,Ponta Do Sol,PT,32.6667,-17.1,74.71,90,92,7.7,2022-10-26 17:50:52
143,Victoria,HK,22.2855,114.1577,74.32,78,98,11.01,2022-10-26 17:50:06
144,Ambon,ID,-3.6954,128.1814,77.14,88,20,5.75,2022-10-26 17:50:54
145,Leningradskiy,RU,69.3833,178.4167,-1.3,95,12,6.89,2022-10-26 17:50:55
146,Sembe,CG,1.6481,14.5806,72.1,97,87,1.52,2022-10-26 17:50:56
147,Mar Del Plata,AR,-38.0023,-57.5575,63.09,96,100,9.22,2022-10-26 17:50:56
148,Orbetello,IT,42.4408,11.2196,66.22,81,14,4.32,2022-10-26 17:50:57
149,Udachnyy,RU,66.4167,112.4,26.46,85,100,22.37,2022-10-26 17:50:58
150,Mbarara,UG,-0.608,30.65,63.88,88,54,2.93,2022-10-26 17:50:58
151,Batagay-Alyta,RU,67.8006,130.4114,-0.02,84,31,6.46,2022-10-26 17:50:58
152,Las Lomas,PA,8.4333,-82.4,83.61,79,40,6.91,2022-10-26 17:50:59
153,Springbok,ZA,-29.6643,17.8865,68.47,29,48,3.94,2022-10-26 17:51:00
154,Conchas,BR,-23.0153,-48.0106,88.09,33,0,3.29,2022-10-26 17:51:00
155,Cidreira,BR,-30.1811,-50.2056,72.39,73,84,14.81,2022-10-26 17:51:00
156,Hovd,MN,48.0056,91.6419,25.48,62,30,0.81,2022-10-26 17:51:01
157,Grande Prairie,CA,55.1667,-118.8027,30.38,80,75,4.61,2022-10-26 17:51:03
158,Gao,ML,16.6362,1.637,88.77,15,33,10.54,2022-10-26 17:51:04
159,Milkovo,RU,54.7167,158.6167,31.06,77,68,7.99,2022-10-26 17:51:04
160,Dali,CN,25.7,100.1833,56.25,95,17,3.94,2022-10-26 17:51:05
161,Biak,ID,-0.9131,122.8766,76.8,80,96,1.41,2022-10-26 17:51:05
162,Dingle,PH,10.9995,122.6711,76.08,94,100,5.23,2022-10-26 17:51:06
163,Yanam,IN,16.7333,82.2167,75.69,80,10,2.21,2022-10-26 17:51:07
164,Maloy,NO,61.9353,5.1136,51.53,34,96,5.82,2022-10-26 17:51:08
165,Klaksvik,FO,62.2266,-6.589,52.72,97,100,36.91,2022-10-26 17:48:44
166,Mahebourg,MU,-20.4081,57.7,73.69,78,75,11.5,2022-10-26 17:50:27
167,Sorland,NO,67.667,12.6934,44.46,59,31,3.29,2022-10-26 17:51:11
168,Codrington,AU,-38.2667,141.9667,56.01,97,100,10.13,2022-10-26 17:51:11
169,Sitka,US,57.0531,-135.33,49.89,87,100,11.5,2022-10-26 17:51:12
170,Kavieng,PG,-2.5744,150.7967,81.81,75,100,5.57,2022-10-26 17:51:12
171,Staunton,US,38.1496,-79.0717,66.56,75,100,8.01,2022-10-26 17:47:46
172,Boulsa,BF,12.6675,-0.5758,89.51,28,97,5.77,2022-10-26 17:51:14
173,Tessalit,ML,20.1986,1.0114,84.63,12,7,12.08,2022-10-26 17:51:14
174,Isangel,VU,-19.55,169.2667,73.26,87,5,6.15,2022-10-26 17:51:15
175,Turayf,SA,31.6725,38.6637,70.05,37,40,16.11,2022-10-26 17:51:16
176,Sibu,MY,2.3,111.8167,75.51,100,40,2.3,2022-10-26 17:51:17
177,Havre-Saint-Pierre,CA,50.2334,-63.5986,59.36,77,100,0.0,2022-10-26 17:51:18
178,Hella,NO,67.2,14.4333,42.94,94,75,8.05,2022-10-26 17:51:18
179,Hasaki,JP,35.7333,140.8333,50.22,54,0,10.4,2022-10-26 17:51:20
180,Friedberg,DE,48.3569,10.9846,60.21,92,0,3.44,2022-10-26 17:51:22
181,Avarua,CK,-21.2078,-159.775,69.85,88,61,1.14,2022-10-26 17:47:11
182,Grindavik,IS,63.8424,-22.4338,48.15,87,0,5.75,2022-10-26 17:46:53
183,Tasiilaq,GL,65.6145,-37.6368,19.76,96,100,3.42,2022-10-26 17:51:27
184,Bogovarovo,RU,58.9785,47.0246,30.61,76,95,7.83,2022-10-26 17:51:30
185,Sola,VU,-13.8833,167.55,79.3,75,3,2.1,2022-10-26 17:51:32
186,Saskylakh,RU,71.9167,114.0833,8.67,96,100,4.59,2022-10-26 17:51:33
187,Dauphin,CA,51.1494,-100.0502,33.94,80,100,9.22,2022-10-26 17:52:33
188,Olovyannaya,RU,50.95,115.5667,26.92,48,0,3.6,2022-10-26 17:52:34
189,Margate,GB,51.3813,1.3862,62.91,83,80,1.99,2022-10-26 17:50:49
190,Sao Filipe,CV,14.8961,-24.4956,78.71,81,100,10.98,2022-10-26 17:52:35
191,Werda,BW,-25.2667,23.2833,73.9,46,38,18.43,2022-10-26 17:52:37
192,Yumbe,UG,3.4651,31.2469,70.83,73,91,4.99,2022-10-26 17:52:37
193,Sarankhola,BD,22.3082,89.7897,71.17,84,8,1.21,2022-10-26 17:52:38
194,Chara,RU,56.9064,118.2631,19.6,64,52,1.72,2022-10-26 17:52:39
195,Kutum,SD,14.2,24.6667,75.2,20,5,7.92,2022-10-26 17:48:13
196,Pahrump,US,36.2083,-115.9839,60.94,18,0,1.01,2022-10-26 17:52:40
197,Anchorage,US,61.2181,-149.9003,26.98,90,100,13.8,2022-10-26 17:47:51
198,Yar-Sale,RU,66.8333,70.8333,28.42,83,97,17.85,2022-10-26 17:52:41
199,Nikolskoye,RU,59.7035,30.7861,48.09,98,100,4.74,2022-10-26 17:52:43
200,Diffa,NE,13.3154,12.6113,82.92,16,17,7.2,2022-10-26 17:52:44
201,Vostok,RU,46.4856,135.8833,38.03,78,100,4.27,2022-10-26 17:52:49
202,Mariental,NA,-24.6333,17.9667,87.39,12,72,3.67,2022-10-26 17:52:51
203,Oyama,JP,36.3,139.8,54.59,58,0,3.58,2022-10-26 17:52:47
204,Komsomolskiy,UZ,40.4272,71.7189,54.32,71,96,2.3,2022-10-26 17:52:52
205,Petawawa,CA,45.9001,-77.3328,65.79,68,75,10.36,2022-10-26 17:48:23
206,Riachao Das Neves,BR,-11.7461,-44.91,82.99,55,60,8.39,2022-10-26 17:52:54
207,Nahan,IN,30.55,77.3,63.14,53,0,5.06,2022-10-26 17:52:55
208,Winslow,US,35.0242,-110.6974,57.38,28,0,4.61,2022-10-26 17:52:57
209,Jacmel,HT,18.2342,-72.5347,87.64,66,60,5.48,2022-10-26 17:52:57
210,Camacha,PT,33.0833,-16.3333,69.22,83,40,9.22,2022-10-26 17:53:01
211,Smithers,CA,54.7804,-127.1743,34.12,86,100,10.36,2022-10-26 17:51:41
212,Divnogorsk,RU,55.9594,92.3619,19.89,64,40,4.07,2022-10-26 17:53:02
213,Mpika,ZM,-11.8343,31.4529,76.77,31,28,10.0,2022-10-26 17:53:02
214,Lebu,CL,-37.6167,-73.65,58.69,68,6,9.48,2022-10-26 17:53:04
215,Port Hedland,AU,-20.3167,118.5667,71.65,88,1,0.0,2022-10-26 17:53:05
216,Portland,US,45.5234,-122.6762,52.99,91,40,4.61,2022-10-26 17:49:20
217,Cayenne,GF,4.9333,-52.3333,84.24,74,75,9.22,2022-10-26 17:51:07
218,Reconquista,AR,-29.15,-59.65,80.76,59,99,9.33,2022-10-26 17:53:06
219,Laguna,US,38.421,-121.4238,66.09,54,0,3.44,2022-10-26 17:53:07
220,Alofi,NU,-19.0595,-169.9187,69.69,94,100,3.44,2022-10-26 17:50:21
221,Harper,LR,4.375,-7.7169,79.75,83,54,7.94,2022-10-26 17:53:08
222,Galle,LK,6.0367,80.217,77.34,87,100,3.8,2022-10-26 17:53:08
223,Saint-Joseph,RE,-21.3667,55.6167,71.98,84,71,12.1,2022-10-26 17:53:10
224,Petropavlovsk-Kamchatskiy,RU,53.0452,158.6483,30.79,86,75,2.24,2022-10-26 17:53:12
225,Alta Floresta,BR,-9.8756,-56.0861,91.22,52,40,6.91,2022-10-26 17:48:34
226,Tura,IN,25.5198,90.2201,65.23,83,0,2.73,2022-10-26 17:53:14
227,Ambanja,MG,-13.6833,48.45,75.04,83,30,0.4,2022-10-26 17:53:16
228,Longyearbyen,SJ,78.2186,15.6401,12.04,79,20,10.36,2022-10-26 17:53:18
229,Scarborough,GB,54.2797,-0.4044,60.37,75,61,8.01,2022-10-26 17:53:20
230,Monrovia,LR,6.3005,-10.7969,82.17,79,35,6.53,2022-10-26 17:51:22
231,Saint George,US,37.1041,-113.5841,59.43,42,0,3.44,2022-10-26 17:50:43
232,Dubbo,AU,-32.25,148.6167,59.13,94,100,5.75,2022-10-26 17:54:22
233,Kununurra,AU,-15.7667,128.7333,84.18,74,86,0.0,2022-10-26 17:54:23
234,Chisinau,MD,47.0056,28.8575,55.83,92,0,8.05,2022-10-26 17:51:55
235,Amboasary,MG,-25.0333,46.3833,73.76,77,12,1.66,2022-10-26 17:54:25
236,San Borja,BO,-14.8167,-66.85,97.99,36,93,7.23,2022-10-26 17:54:27
237,Jimma,ET,7.6667,36.8333,59.63,95,85,1.34,2022-10-26 17:54:29
238,Voznesenye,RU,61.0106,35.4781,39.92,93,100,8.23,2022-10-26 17:54:30
239,Port Blair,IN,11.6667,92.75,77.04,94,75,2.3,2022-10-26 17:54:31
240,Qaqortoq,GL,60.7167,-46.0333,32.88,98,100,6.2,2022-10-26 17:54:32
241,Debre Birhan,ET,9.6833,39.5333,49.64,83,48,6.06,2022-10-26 17:54:33
242,Kingsburg,US,36.5138,-119.554,64.26,44,0,4.61,2022-10-26 17:54:33
243,Banda Aceh,ID,5.5577,95.3222,79.92,82,100,8.39,2022-10-26 17:54:34
244,Oxelosund,SE,58.6706,17.1015,50.38,87,100,6.91,2022-10-26 17:54:35
245,Corrente,BR,-3.7367,-43.3394,86.94,57,100,5.21,2022-10-26 17:54:37
246,Arlit,NE,18.7369,7.3853,84.07,13,45,13.78,2022-10-26 17:54:38
247,Rawson,AR,-43.3002,-65.1023,70.32,29,60,14.14,2022-10-26 17:54:39
248,Ketchikan,US,55.3422,-131.6461,46.22,96,100,11.01,2022-10-26 17:54:40
249,Lingao,CN,19.9103,109.6859,73.35,90,91,9.78,2022-10-26 17:54:42
250,Lagoa,PT,39.05,-27.9833,60.57,68,97,26.04,2022-10-26 17:54:43
251,Kilimatinde,TZ,-5.85,34.95,81.54,29,19,8.63,2022-10-26 17:54:44
252,Khani,GE,41.9563,42.9566,45.97,71,71,3.44,2022-10-26 17:54:45
253,Chadiza,ZM,-14.0678,32.4392,80.8,33,91,5.48,2022-10-26 17:54:48
254,Ialibu,PG,-6.2821,143.9935,56.73,97,99,1.59,2022-10-26 17:54:50
255,Tubuala,PA,9.5167,-79.0333,82.76,73,97,6.67,2022-10-26 17:54:54
256,Lannion,FR,48.75,-3.4167,61.68,82,0,4.61,2022-10-26 17:54:55
257,Oranjemund,NA,-28.55,16.4333,59.76,87,40,11.59,2022-10-26 17:54:56
258,Chiang Klang,TH,19.2938,100.8617,71.89,97,9,1.23,2022-10-26 17:54:58
259,Paramonga,PE,-10.6667,-77.8333,66.97,69,32,10.85,2022-10-26 17:54:59
260,Mundo Nuevo,MX,18.7,-95.5,79.27,77,96,10.78,2022-10-26 17:55:02
261,Yulara,AU,-25.2406,130.9889,65.28,44,0,8.46,2022-10-26 17:55:02
262,Ocos,GT,14.5094,-92.1933,82.69,74,47,5.93,2022-10-26 17:55:03
263,Ibanda,TZ,-2.7974,32.4746,70.36,64,55,4.0,2022-10-26 17:55:04
264,Faya,SA,18.3851,42.4509,66.72,25,3,8.3,2022-10-26 17:55:04
265,Saldanha,ZA,-33.0117,17.9442,71.65,90,16,10.31,2022-10-26 17:55:05
266,Uarini,BR,-2.99,-65.1083,82.49,80,89,4.68,2022-10-26 17:55:07
267,Kaihua,CN,23.3687,104.28,61.83,95,54,4.52,2022-10-26 17:55:07
268,San Patricio,US,28.017,-97.5169,79.07,24,0,10.47,2022-10-26 17:55:08
269,Luderitz,NA,-26.6481,15.1594,61.59,79,1,11.56,2022-10-26 17:55:10
270,Paamiut,GL,61.994,-49.6678,34.74,96,100,24.34,2022-10-26 17:55:11
271,Batagay,RU,67.6333,134.6333,0.61,95,85,4.36,2022-10-26 17:55:11
272,Meulaboh,ID,4.1363,96.1285,76.55,88,100,2.89,2022-10-26 17:55:13
273,Vestmannaeyjar,IS,63.4427,-20.2734,47.39,81,20,13.8,2022-10-26 17:55:14
274,Manono,CD,-7.3,27.4167,75.13,74,76,4.27,2022-10-26 17:55:14
275,Adre,TD,13.4667,22.2,80.26,21,6,6.15,2022-10-26 17:56:17
276,Maningrida,AU,-12.0667,134.2667,80.46,77,66,4.21,2022-10-26 17:56:18
277,Verkhoyansk,RU,67.5447,133.385,-0.06,90,35,5.12,2022-10-26 17:56:18
278,Humaita,BR,-7.5061,-63.0208,91.24,50,99,3.29,2022-10-26 17:56:19
279,Hilo,US,19.7297,-155.09,78.62,87,16,1.99,2022-10-26 17:53:44
280,Chumikan,RU,54.7183,135.315,26.46,84,46,7.85,2022-10-26 17:56:20
281,Opuwo,NA,-18.0607,13.84,80.8,25,52,13.18,2022-10-26 17:56:23
282,Haines Junction,CA,60.7522,-137.5108,22.95,93,100,0.0,2022-10-26 17:56:24
283,Pontes E Lacerda,BR,-15.2261,-59.3353,98.98,31,51,5.7,2022-10-26 17:51:45
284,Progreso,MX,21.2833,-89.6667,90.1,61,2,9.33,2022-10-26 17:52:43
285,Sehithwa,BW,-20.4667,22.7167,81.95,36,98,3.96,2022-10-26 17:56:25
286,Singaparna,ID,-7.3515,108.111,70.21,98,99,3.18,2022-10-26 17:56:25
287,Airai,TL,-8.9266,125.4092,62.37,89,100,0.72,2022-10-26 17:56:26
288,Paka,MY,4.6374,103.4368,75.13,100,100,0.0,2022-10-26 17:56:27
289,Waitati,NZ,-45.75,170.5667,45.81,93,100,2.51,2022-10-26 17:56:29
290,Mitsamiouli,KM,-11.3847,43.2844,76.78,78,43,11.32,2022-10-26 17:56:30
291,Slave Lake,CA,55.2834,-114.769,30.18,86,75,3.44,2022-10-26 17:56:32
292,Marienburg,PL,54.0359,19.0266,50.88,83,46,4.97,2022-10-26 17:56:32
293,Tianpeng,CN,30.9866,103.9393,61.27,90,100,2.24,2022-10-26 17:56:33
294,Manggar,ID,-2.8833,108.2667,76.42,89,100,4.09,2022-10-26 17:56:34
295,Anadyr,RU,64.75,177.4833,21.7,86,75,11.18,2022-10-26 17:56:35
296,Popondetta,PG,-8.7537,148.2534,73.49,93,100,3.0,2022-10-26 17:56:36
297,Puerto Baquerizo Moreno,EC,-0.9,-89.6,68.99,83,100,12.66,2022-10-26 17:56:37
298,Zarubino,RU,42.63,131.0922,50.5,63,100,20.62,2022-10-26 17:56:38
299,Bintulu,MY,3.1667,113.0333,75.61,94,40,3.44,2022-10-26 17:56:39
300,Pundaguitan,PH,6.3711,126.1689,83.1,75,98,11.34,2022-10-26 17:55:53
301,Berlevag,NO,70.8578,29.0864,37.35,65,100,10.36,2022-10-26 17:56:39
302,Masuda,JP,34.6667,131.85,54.88,71,93,4.76,2022-10-26 17:56:40
303,Mehamn,NO,71.0357,27.8492,37.31,75,75,11.5,2022-10-26 17:56:40
304,Acari,PE,-15.4311,-74.6158,76.53,47,32,11.86,2022-10-26 17:56:40
305,Olinda,BR,-8.0089,-34.8553,82.13,61,40,8.05,2022-10-26 17:56:41
306,North Bend,US,43.4065,-124.2243,53.17,100,83,4.56,2022-10-26 17:56:42
307,Namibe,AO,-15.1961,12.1522,69.21,79,30,11.7,2022-10-26 17:56:42
308,Malakal,SS,9.5334,31.6605,75.51,52,84,3.65,2022-10-26 17:56:42
309,Leh,IN,34.1667,77.5833,32.22,45,5,3.74,2022-10-26 17:56:43
310,Adelaide,AU,-34.9333,138.6,57.33,71,75,18.41,2022-10-26 17:56:44
311,Monroe,US,43.1501,-77.6831,74.08,57,62,5.01,2022-10-26 17:56:44
312,Barra Da Estiva,BR,-13.6261,-41.3269,79.63,46,95,9.55,2022-10-26 17:56:45
313,Nelson Bay,AU,-32.7167,152.15,66.99,85,29,5.01,2022-10-26 17:56:45
314,Lincoln,US,40.8,-96.667,58.26,52,81,4.0,2022-10-26 17:53:09
315,Te Anau,NZ,-45.4167,167.7167,47.75,97,100,2.26,2022-10-26 17:56:45
316,Talcahuano,CL,-36.7167,-73.1167,60.48,72,40,8.05,2022-10-26 17:53:01
317,Otane,NZ,-39.8833,176.6333,55.0,86,71,2.57,2022-10-26 17:56:47
318,Kieta,PG,-6.2167,155.6333,79.09,83,74,0.83,2022-10-26 17:56:47
319,Xuddur,SO,4.1213,43.8894,78.33,69,87,9.51,2022-10-26 17:56:47
320,Bandarbeyla,SO,9.4942,50.8122,78.78,85,7,8.19,2022-10-26 17:56:49
321,Gornozavodsk,RU,58.3758,58.3211,22.41,94,48,3.27,2022-10-26 17:56:50
322,Thunder Bay,CA,48.4001,-89.3168,42.78,45,40,10.36,2022-10-26 17:57:52
323,Touros,BR,-5.1989,-35.4608,83.12,60,100,13.15,2022-10-26 17:57:54
324,Tahta,EG,26.7693,31.5021,76.91,42,1,7.27,2022-10-26 17:57:55
325,San Rafael,AR,-34.6177,-68.3301,78.22,18,0,8.32,2022-10-26 17:57:55
326,Geraldton,AU,-28.7667,114.6,55.81,82,2,12.66,2022-10-26 17:57:57
327,Pinhao,BR,-25.6956,-51.6597,77.81,41,2,6.62,2022-10-26 17:57:13
328,Luwuk,ID,-0.9516,122.7875,78.15,79,98,2.26,2022-10-26 17:57:59
329,Asilah,MA,35.465,-6.0348,82.36,37,91,9.91,2022-10-26 17:58:00
330,Eureka,US,40.8021,-124.1637,54.75,85,40,1.99,2022-10-26 17:56:32
331,Erenhot,CN,43.6475,111.9767,32.29,39,59,9.04,2022-10-26 17:58:01
332,Yoichi,JP,43.2039,140.7703,45.32,69,0,7.56,2022-10-26 17:58:03
333,Andenes,NO,69.3143,16.1194,37.38,81,75,8.05,2022-10-26 17:58:04
334,Sinnamary,GF,5.3833,-52.95,82.35,79,90,12.15,2022-10-26 17:58:05
335,Juan Lacaze,UY,-34.4342,-57.4381,68.07,86,100,20.0,2022-10-26 17:58:06
336,Yagodnoye,RU,62.55,149.6667,-2.81,87,13,5.55,2022-10-26 17:58:08
337,Poum,NC,-20.2333,164.0167,75.88,80,4,10.87,2022-10-26 17:58:08
338,Namatanai,PG,-3.6667,152.4333,79.5,79,99,3.33,2022-10-26 17:58:09
339,Nuuk,GL,64.1835,-51.7216,34.88,80,100,11.01,2022-10-26 17:58:10
340,Katherine,AU,-14.4667,132.2667,86.32,58,17,6.91,2022-10-26 17:58:12
341,Changji,CN,44.0167,87.3167,45.39,57,0,4.47,2022-10-26 17:58:13
342,Atar,MR,20.5169,-13.0499,92.71,9,82,8.99,2022-10-26 17:58:14
343,Sibolga,ID,1.7427,98.7792,74.55,97,100,1.23,2022-10-26 17:58:14
344,Port Macquarie,AU,-31.4333,152.9167,59.9,76,1,5.48,2022-10-26 17:58:15
345,Ulladulla,AU,-35.35,150.4667,60.58,72,30,6.49,2022-10-26 17:58:16
346,Prince Albert,CA,53.2001,-105.7677,33.75,93,75,4.61,2022-10-26 17:58:16
347,Zambezi,ZM,-13.5432,23.1047,77.61,43,57,6.67,2022-10-26 17:58:17
348,Pampa,US,35.5362,-100.9599,66.24,34,0,16.11,2022-10-26 17:58:19
349,Kasrawad,IN,22.1333,75.6,74.17,40,0,0.13,2022-10-26 17:58:20
350,Mahibadhoo,MV,3.7833,72.9667,82.49,75,78,8.77,2022-10-26 17:58:21
351,Barranca,PE,-10.75,-77.7667,66.45,67,31,10.87,2022-10-26 17:58:22
352,Mizdah,LY,31.4451,12.9801,70.23,29,4,8.5,2022-10-26 17:58:25
353,Yingcheng,CN,30.95,113.55,58.01,86,99,8.48,2022-10-26 17:58:26
354,Torzhok,RU,57.0436,34.9622,37.6,82,99,7.54,2022-10-26 17:58:27
355,Tete,MZ,-16.1564,33.5867,98.69,25,40,5.99,2022-10-26 17:58:27
356,Mount Isa,AU,-20.7333,139.5,69.57,100,49,0.0,2022-10-26 17:58:29
357,Mizan Teferi,ET,6.9833,35.5833,61.14,95,52,3.13,2022-10-26 17:58:30
358,Kurtamysh,RU,54.9103,64.4319,28.8,77,90,15.66,2022-10-26 17:58:31
359,Kalmunai,LK,7.4167,81.8167,81.28,66,90,4.85,2022-10-26 17:58:31
360,Anori,BR,-3.7728,-61.6442,90.99,54,100,1.45,2022-10-26 17:58:32
361,Sechelt,CA,49.4664,-123.7694,48.29,75,100,2.24,2022-10-26 17:58:33
362,Koungheul,SN,13.9833,-14.8,92.5,27,26,4.29,2022-10-26 17:58:33
363,Sioux Lookout,CA,50.1001,-91.917,33.87,64,75,11.5,2022-10-26 17:57:02
364,Kalianget,ID,-7.05,113.9333,77.59,86,100,2.89,2022-10-26 17:58:35
365,Necochea,AR,-38.5473,-58.7368,56.97,98,100,6.62,2022-10-26 17:58:35
366,Bay Roberts,CA,47.5999,-53.2648,62.65,87,91,5.01,2022-10-26 17:58:36
367,Lavrentiya,RU,65.5833,-171.0,24.01,77,6,7.25,2022-10-26 17:58:37
368,Correntina,BR,-13.3433,-44.6367,83.46,47,91,5.55,2022-10-26 17:58:39
369,Broken Hill,AU,-31.95,141.4333,55.78,74,12,13.38,2022-10-26 17:59:40
370,Cienfuegos,CU,22.1461,-80.4356,86.79,42,0,5.79,2022-10-26 17:59:40
371,Pogaceaua,RO,46.6833,24.3,51.35,81,10,2.01,2022-10-26 17:59:41
372,Cefalu,IT,38.0386,14.0229,76.35,41,44,1.01,2022-10-26 17:59:42
373,Mayskiy,RU,47.6931,40.1025,51.21,70,100,14.83,2022-10-26 17:59:44
374,Plouzane,FR,48.3833,-4.6167,60.98,94,75,11.5,2022-10-26 17:59:46
375,Sabha,LY,27.0377,14.4283,74.1,22,0,11.77,2022-10-26 17:59:48
376,Aklavik,CA,68.2191,-135.0107,15.8,92,100,6.91,2022-10-26 17:59:49
377,Rock Sound,BS,24.9,-76.2,79.47,69,5,6.64,2022-10-26 17:59:50
378,Taunggyi,MM,20.7833,97.0333,60.44,97,8,0.31,2022-10-26 17:59:52
379,Tahe,CN,52.3333,124.7333,24.89,57,0,3.36,2022-10-26 17:59:53
380,Kijang,KR,35.2442,129.2139,56.93,59,100,5.37,2022-10-26 17:59:54
381,Jumla,NP,29.2747,82.1838,43.65,67,0,4.45,2022-10-26 17:59:57
382,Constitucion,CL,-35.3333,-72.4167,62.64,67,30,13.6,2022-10-26 17:59:05
383,Barcelos,PT,41.5388,-8.6151,69.85,90,98,6.51,2022-10-26 18:00:02
384,Port Lincoln,AU,-34.7333,135.8667,57.06,66,100,19.33,2022-10-26 18:00:05
385,Labytnangi,RU,66.6572,66.4183,27.23,86,100,14.25,2022-10-26 18:00:06
386,Burgeo,CA,47.6167,-57.6152,58.17,95,98,12.46,2022-10-26 18:00:07
387,Marawi,PH,7.9986,124.2928,68.88,96,100,1.99,2022-10-26 18:00:09
388,Richards Bay,ZA,-28.783,32.0377,68.86,75,82,6.91,2022-10-26 17:58:58
389,Chapais,CA,49.7834,-74.8492,64.69,65,75,12.46,2022-10-26 18:00:10
390,Mersing,MY,2.4312,103.8405,76.05,92,100,3.58,2022-10-26 18:00:13
391,Roma,US,43.2128,-75.4557,72.88,78,77,4.0,2022-10-26 17:58:03
392,Rio Gallegos,AR,-51.6226,-69.2181,62.29,25,100,23.2,2022-10-26 18:00:15
393,Pangody,RU,65.85,74.4859,18.43,94,42,11.5,2022-10-26 18:00:15
394,Kurilsk,RU,45.2333,147.8833,40.6,71,96,4.79,2022-10-26 18:00:16
395,Mocuba,MZ,-16.8392,36.9856,81.73,50,21,8.34,2022-10-26 18:00:17
396,Moose Factory,CA,51.2585,-80.6094,37.38,93,100,5.75,2022-10-26 18:00:19
397,Zilair,RU,52.2332,57.4392,24.87,90,10,4.94,2022-10-26 18:00:25
398,Iqaluit,CA,63.7506,-68.5145,33.53,93,100,26.46,2022-10-26 18:00:14
399,Zhigansk,RU,66.7697,123.3711,19.33,95,100,20.69,2022-10-26 18:00:34
400,Coquimbo,CL,-29.9533,-71.3436,63.5,63,0,10.78,2022-10-26 18:00:37
401,Yeppoon,AU,-23.1333,150.7333,67.78,85,93,2.75,2022-10-26 18:00:38
402,Sokoni,TZ,-6.4333,39.55,77.72,82,33,12.82,2022-10-26 18:00:41
403,Dhidhdhoo,MV,6.8833,73.1,82.08,70,50,2.1,2022-10-26 18:00:00
404,Winthrop,US,42.3751,-70.9828,68.38,96,100,4.16,2022-10-26 18:00:08
405,Balatonfured,HU,46.9619,17.8719,58.35,86,100,3.0,2022-10-26 18:00:44
406,Dongfeng,CN,42.6403,125.5118,35.22,90,18,5.48,2022-10-26 18:00:45
407,Rockhampton,AU,-23.3833,150.5,67.89,83,85,3.44,2022-10-26 18:00:47
408,San Pedro,PH,14.35,121.0167,80.35,86,100,6.89,2022-10-26 18:00:48
409,Dindigul,IN,10.35,77.95,76.03,69,62,2.51,2022-10-26 18:00:51
410,Vila Velha,BR,-20.3297,-40.2925,75.72,75,28,8.72,2022-10-26 18:00:54
411,Tecoanapa,MX,16.5167,-98.75,84.09,73,15,5.95,2022-10-26 18:00:55
412,Seymchan,RU,62.8833,152.4333,-4.43,85,11,0.81,2022-10-26 18:00:56
413,Port-Cartier,CA,50.0334,-66.8654,52.02,89,98,5.64,2022-10-26 18:01:01
414,Karratha,AU,-20.7377,116.8463,73.24,59,0,9.55,2022-10-26 18:01:01
415,Oussouye,SN,12.485,-16.5469,88.72,57,50,5.59,2022-10-26 18:02:11
416,Gornopravdinsk,RU,60.05,69.9,25.7,87,11,3.76,2022-10-26 18:02:11
417,Atherton,GB,53.5237,-2.4935,59.76,75,26,1.99,2022-10-26 18:02:12
418,Bardiyah,LY,31.7561,25.0865,71.17,77,0,6.85,2022-10-26 18:02:14
419,Caravelas,BR,-17.7125,-39.2481,79.02,67,32,8.88,2022-10-26 18:02:15
420,Clacton-On-Sea,GB,51.7897,1.156,61.14,78,78,5.01,2022-10-26 18:02:17
421,Dombarovskiy,RU,50.7587,59.5386,31.59,76,63,9.62,2022-10-26 18:02:18
422,Fortuna,US,40.5982,-124.1573,54.36,90,20,5.75,2022-10-26 18:02:18
423,Bam,IR,29.106,58.357,74.68,20,6,2.77,2022-10-26 18:02:19
424,Kashi,CN,39.4547,75.9797,53.92,32,64,5.59,2022-10-26 18:02:21
425,Iranshahr,IR,27.2025,60.6848,81.07,15,0,4.99,2022-10-26 18:02:22
426,Fort Nelson,CA,58.8053,-122.7002,23.95,90,100,5.01,2022-10-26 18:02:22
427,Karpathos,GR,35.507,27.2132,67.96,77,20,10.36,2022-10-26 18:02:23
428,Pag,HR,44.445,15.0575,61.38,76,1,8.12,2022-10-26 18:02:25
429,Ust-Omchug,RU,61.15,149.6333,-1.53,97,66,4.68,2022-10-26 18:02:28
430,Esmeraldas,BR,-19.7625,-44.3139,85.78,33,36,6.76,2022-10-26 18:02:30
431,Kathu,TH,7.9178,98.3332,83.7,99,99,5.84,2022-10-26 18:02:32
432,Luanda,AO,-8.8368,13.2343,77.09,84,42,13.91,2022-10-26 18:00:24
433,Paita,PE,-5.0892,-81.1144,70.47,71,55,15.86,2022-10-26 18:02:35
434,Xichang,CN,27.8964,102.2634,60.46,94,73,2.59,2022-10-26 18:02:36
435,Pudozh,RU,61.8099,36.5345,35.91,96,100,7.11,2022-10-26 18:02:37
436,Along,IN,28.1667,94.7667,63.27,98,26,1.66,2022-10-26 18:02:37
437,Viedma,AR,-40.8135,-62.9967,71.11,32,100,20.33,2022-10-26 18:00:41
438,Vila,PT,42.0304,-8.1588,59.88,92,89,5.17,2022-10-26 18:02:40
439,Huarmey,PE,-10.0681,-78.1522,68.61,67,28,10.98,2022-10-26 18:02:45
440,Wad Madani,SD,14.4012,33.5199,87.19,17,88,10.2,2022-10-26 18:02:45
441,Coxim,BR,-18.5067,-54.76,101.23,23,19,11.23,2022-10-26 17:59:25
442,Gwadar,PK,25.1216,62.3254,82.2,60,0,9.19,2022-10-26 18:02:46
443,Coihaique,CL,-45.5752,-72.0662,55.51,48,83,15.32,2022-10-26 18:00:32
444,Beyneu,KZ,45.3167,55.2,42.51,47,9,7.0,2022-10-26 18:00:12
445,Roald,NO,62.5833,6.1333,54.75,93,0,4.61,2022-10-26 18:00:10
446,Alice Springs,AU,-23.7,133.8833,67.55,49,51,8.05,2022-10-26 18:00:13
447,Aitape,PG,-3.1374,142.3475,77.45,86,86,2.98,2022-10-26 18:02:47
448,Zyryanka,RU,65.75,150.85,20.84,90,100,12.84,2022-10-26 18:02:48
449,San Quintin,MX,30.4833,-115.95,69.58,62,0,11.61,2022-10-26 18:02:50
450,Reyes,BO,-14.3167,-67.3833,98.94,34,74,7.02,2022-10-26 18:02:52
451,Felanitx,ES,39.4696,3.1483,75.13,52,100,4.21,2022-10-26 18:02:53
452,Santa Maria,BR,-29.6842,-53.8069,86.14,48,79,9.06,2022-10-26 17:59:19
453,Mamit,IN,23.9333,92.4833,60.3,99,6,1.61,2022-10-26 18:02:59
454,Bambanglipuro,ID,-7.95,110.2833,74.32,89,100,4.38,2022-10-26 18:03:02
455,Emba,KZ,48.8264,58.1442,33.96,64,18,9.71,2022-10-26 18:03:05
456,Kaitangata,NZ,-46.2817,169.8464,45.68,92,100,4.09,2022-10-26 18:03:06
457,Bilibino,RU,68.0546,166.4372,4.14,98,100,1.1,2022-10-26 18:03:07
458,San Cristobal,VE,7.7669,-72.225,76.44,68,100,3.15,2022-10-26 18:03:17
459,Umm Lajj,SA,25.0213,37.2685,80.28,61,99,11.23,2022-10-26 18:04:10
460,Vallenar,CL,-28.5708,-70.7581,82.36,14,0,12.17,2022-10-26 18:02:12
461,Vilaka,LV,57.1846,27.6722,48.78,97,99,5.79,2022-10-26 18:04:12
462,Santiago De Cao,PE,-7.9589,-79.2392,64.72,77,75,13.02,2022-10-26 18:01:12
463,Makurdi,NG,7.7411,8.5121,82.78,64,43,2.24,2022-10-26 18:04:16
464,Quatre Cocos,MU,-20.2078,57.7625,73.09,76,9,13.29,2022-10-26 18:04:17
465,Wanning,CN,18.8003,110.3967,75.72,90,62,8.59,2022-10-26 18:04:19
466,Gazojak,TM,41.1875,61.4036,51.76,53,38,5.01,2022-10-26 18:04:20
467,Ostrovnoy,RU,68.0531,39.5131,32.49,94,100,15.14,2022-10-26 18:04:21
468,Santa Vitoria Do Palmar,BR,-33.5189,-53.3681,71.65,80,100,12.8,2022-10-26 18:04:22
469,Boshnyakovo,RU,49.6333,142.1667,43.88,84,88,10.22,2022-10-26 18:04:24
470,Palana,RU,59.1167,159.9667,33.3,65,100,24.02,2022-10-26 18:04:26
471,Jinchang,CN,38.4953,102.1739,46.36,53,7,2.37,2022-10-26 18:04:27
472,Methven,NZ,-43.6333,171.65,46.02,97,100,1.01,2022-10-26 18:04:28
473,Baranchinskiy,RU,58.1617,59.6991,24.8,87,21,3.49,2022-10-26 18:04:29
474,Mutsu,JP,41.2894,141.2169,46.76,71,4,3.76,2022-10-26 18:04:30
475,Flin Flon,CA,54.7682,-101.865,30.7,70,66,7.31,2022-10-26 18:04:31
476,Vuktyl,RU,63.8567,57.3094,28.26,90,100,9.24,2022-10-26 18:04:33
477,Belyy Yar,RU,53.6039,91.3903,21.09,86,43,4.47,2022-10-26 18:04:34
478,Alugan,PH,12.2188,125.4808,80.31,88,100,9.55,2022-10-26 18:04:34
479,Loukhi,RU,66.0764,33.0381,32.88,98,100,6.13,2022-10-26 18:04:35
480,Saryozek,KZ,44.3583,77.9753,44.65,87,100,7.92,2022-10-26 18:04:38
481,Diamantino,BR,-14.4086,-56.4461,96.89,33,95,8.28,2022-10-26 18:00:15
482,Kailua,US,21.4022,-157.7394,78.78,86,100,10.36,2022-10-26 18:04:40
483,Pombia,IT,45.653,8.6336,67.14,88,0,1.14,2022-10-26 18:04:40
484,Fuzhou,CN,26.0614,119.3061,63.99,92,64,3.47,2022-10-26 18:04:40
485,Abu Dhabi,AE,24.4667,54.3667,84.22,71,0,5.75,2022-10-26 18:04:41
486,Cockburn Town,TC,21.4612,-71.1419,80.44,67,48,5.46,2022-10-26 18:04:42
487,Elko,US,41.0002,-115.5012,43.74,37,82,17.0,2022-10-26 18:00:22
488,Georgiyevskoye,RU,58.731,45.024,32.58,73,100,8.72,2022-10-26 18:04:45
489,Angoche,MZ,-16.2325,39.9086,79.21,68,0,17.67,2022-10-26 18:04:46
490,Marzuq,YE,14.4,46.4667,70.3,33,6,1.97,2022-10-26 18:04:46
491,Morehead,US,37.2711,-87.1764,55.78,71,100,10.36,2022-10-26 18:04:46
492,Athabasca,CA,54.7169,-113.2854,37.83,67,90,8.72,2022-10-26 18:04:49
493,Merthyr Tydfil,GB,51.7479,-3.3778,58.55,84,66,15.68,2022-10-26 18:04:50
494,Xining,CN,36.6167,101.7667,47.1,73,96,0.69,2022-10-26 18:04:53
495,Inhambane,MZ,-23.865,35.3833,76.68,91,92,4.16,2022-10-26 18:04:53
496,Yerkoy,TR,39.6381,34.4672,59.47,32,73,1.01,2022-10-26 18:04:54
497,Regina,CA,50.4501,-104.6178,31.98,88,60,8.99,2022-10-26 18:04:55
498,Palimbang,PH,6.2106,124.1894,77.86,87,100,7.38,2022-10-26 18:04:55
499,Sisimiut,GL,66.9395,-53.6735,29.41,75,100,9.57,2022-10-26 18:04:57
500,Galeana,MX,24.8333,-100.0667,70.09,47,12,2.39,2022-10-26 18:05:01
501,Baherden,TM,38.4362,57.4316,60.93,52,0,6.29,2022-10-26 18:05:03
502,Pastavy,BY,55.1168,26.8326,49.28,91,100,9.71,2022-10-26 18:05:06
503,Pangnirtung,CA,66.1451,-65.7125,26.4,86,100,11.36,2022-10-26 18:05:07
504,Amapa,BR,1.0,-52.0,89.4,46,100,4.07,2022-10-26 18:05:08
505,Tevaitoa,PF,-16.7833,-151.5,76.95,88,100,19.93,2022-10-26 18:06:10
506,Yerbogachen,RU,61.2767,108.0108,27.27,76,100,8.84,2022-10-26 18:06:11
507,Ahvaz,IR,31.3203,48.6693,85.95,25,85,2.3,2022-10-26 18:06:13
508,Gat,IL,31.61,34.7642,75.4,62,10,3.18,2022-10-26 18:06:15
509,Ijui,BR,-28.3878,-53.9147,89.1,35,68,13.02,2022-10-26 18:04:20
510,Bathsheba,BB,13.2167,-59.5167,88.41,66,20,17.27,2022-10-26 18:06:16
511,Santiago Del Estero,AR,-27.7951,-64.2615,91.81,19,13,19.17,2022-10-26 18:01:55
512,Sangar,RU,63.9242,127.4739,14.27,96,100,5.1,2022-10-26 18:06:18
513,Novyy Urengoy,RU,66.0833,76.6333,19.58,91,28,11.18,2022-10-26 18:06:19
514,Aripuana,BR,-9.1667,-60.6333,96.8,36,100,2.19,2022-10-26 18:06:20
515,Gomez Palacio,MX,25.5667,-103.5,78.67,25,0,5.75,2022-10-26 18:06:22
516,Shar,KZ,49.5886,81.0453,46.81,67,98,16.33,2022-10-26 18:06:31
517,Karachi,PK,24.9056,67.0822,78.62,83,40,5.75,2022-10-26 18:06:32
518,Santa Cruz,BO,-17.8,-63.1667,93.25,49,40,24.16,2022-10-26 18:06:33
519,Kiama,AU,-34.6833,150.8667,67.37,68,18,5.01,2022-10-26 18:06:36
520,Kjopsvik,NO,68.097,16.3742,31.87,89,99,3.51,2022-10-26 18:06:45
521,Neuquen,AR,-38.9516,-68.0591,71.49,16,0,16.11,2022-10-26 18:06:45
522,Olafsvik,IS,64.8945,-23.7142,43.5,79,96,7.43,2022-10-26 18:06:46
523,Bonavista,CA,48.6499,-53.1147,56.55,90,91,7.16,2022-10-26 18:06:47
524,Armacao De Pera,PT,37.1026,-8.357,73.31,76,84,5.35,2022-10-26 18:06:48
525,Gasa,PS,31.5,34.4667,76.12,65,0,5.97,2022-10-26 18:06:50
526,Port Moresby,PG,-9.4431,147.1797,76.3,86,59,4.14,2022-10-26 18:06:53
527,Pergamino,AR,-33.89,-60.5736,81.5,30,47,19.89,2022-10-26 18:06:54
528,Prainha,BR,-1.8,-53.48,89.62,51,100,4.25,2022-10-26 18:06:56
529,Dandong,CN,40.1292,124.3947,50.27,81,98,5.3,2022-10-26 18:06:59
530,Abu Kamal,SY,34.4506,40.9171,73.98,36,73,4.83,2022-10-26 18:07:00
531,Imperatriz,BR,-5.5264,-47.4917,83.93,61,99,4.09,2022-10-26 18:07:04
532,Carutapera,BR,-1.195,-46.02,85.89,57,100,10.29,2022-10-26 18:07:12
533,Crotone,IT,39.0851,17.1178,73.18,60,40,2.37,2022-10-26 18:07:13
534,Palencia,ES,42.4167,-4.5,66.79,53,78,8.88,2022-10-26 18:07:13
535,Hay River,CA,60.8156,-115.7999,22.96,80,100,6.91,2022-10-26 18:05:47
536,Kupang,ID,-10.1667,123.5833,80.74,80,100,0.49,2022-10-26 18:07:18
537,Port Hawkesbury,CA,45.6169,-61.3485,70.79,95,57,8.99,2022-10-26 18:07:20
538,Rio Cuarto,AR,-33.1307,-64.3499,75.33,31,20,12.66,2022-10-26 18:07:22
539,Cordoba,AR,-31.4135,-64.1811,82.76,33,20,10.36,2022-10-26 18:06:22
540,Oktyabrskoye,RU,43.0645,44.7417,42.35,87,99,4.47,2022-10-26 18:07:24
541,Susanville,US,40.4163,-120.653,46.9,47,0,3.0,2022-10-26 18:07:25
542,Half Moon Bay,US,37.4636,-122.4286,64.17,64,0,16.11,2022-10-26 18:07:28
543,Moustheni,GR,40.8667,24.1167,66.52,58,3,4.45,2022-10-26 18:07:30
544,Odweyne,SO,9.4092,45.064,76.78,52,59,4.79,2022-10-26 18:07:31
545,Samarai,PG,-10.6167,150.6667,80.51,77,100,7.34,2022-10-26 18:08:33
546,Chokurdakh,RU,70.6333,147.9167,11.88,96,100,6.71,2022-10-26 18:08:33
547,Olpad,IN,21.3333,72.75,76.98,46,0,5.35,2022-10-26 18:08:34
548,Astoria,US,46.1879,-123.8313,53.85,85,100,5.75,2022-10-26 18:08:35
549,The Valley,AI,18.217,-63.0578,84.09,75,100,18.63,2022-10-26 18:08:36
550,Portsmouth,GB,50.799,-1.0913,61.92,90,93,1.99,2022-10-26 18:04:58
551,Cap Malheureux,MU,-19.9842,57.6142,73.47,69,4,5.01,2022-10-26 18:08:40
552,Port-De-Bouc,FR,43.4,4.9833,71.82,78,0,5.75,2022-10-26 18:08:41
553,Kansanshi,ZM,-12.0951,26.4273,73.74,39,66,0.83,2022-10-26 18:08:43
554,Kirkwood,US,38.5834,-90.4068,60.03,61,0,6.91,2022-10-26 18:08:45
555,Mongoumba,CF,3.6415,18.5936,74.79,90,80,3.44,2022-10-26 18:08:46
556,Quchan,IR,37.106,58.5095,51.75,62,0,6.71,2022-10-26 18:08:46
557,La Rioja,ES,42.25,-2.5,62.38,54,77,7.72,2022-10-26 18:08:39
558,Rennes,FR,48.1667,-1.6667,62.64,88,0,4.61,2022-10-26 18:04:20
559,Aswan,EG,24.0934,32.907,77.54,28,0,7.76,2022-10-26 18:08:51
560,Gweta,BW,-20.1833,25.2333,77.61,39,86,9.84,2022-10-26 18:08:54
561,Kwinana,AU,-32.25,115.7667,56.17,75,0,1.01,2022-10-26 18:08:55
562,Rawlins,US,41.7911,-107.2387,40.35,70,20,18.41,2022-10-26 18:04:09
563,Rio Branco,BR,-9.9747,-67.81,90.21,62,40,6.91,2022-10-26 18:06:24
564,Srednekolymsk,RU,67.45,153.6833,17.44,95,100,12.5,2022-10-26 18:08:59
565,Brae,GB,60.3964,-1.353,55.47,84,97,21.3,2022-10-26 18:09:01
566,Northam,GB,51.0333,-4.2167,58.6,86,87,14.79,2022-10-26 18:09:03
567,Teguise,ES,29.0605,-13.564,71.82,88,0,11.5,2022-10-26 18:09:04
568,Lasem,ID,-6.6922,111.4527,76.08,89,100,4.47,2022-10-26 18:09:05
569,Seydisehir,TR,37.4193,31.8453,53.74,44,0,3.38,2022-10-26 18:09:06
570,Kushima,JP,31.4583,131.2333,60.24,74,94,5.97,2022-10-26 18:09:08
571,Kulhudhuffushi,MV,6.6221,73.07,82.0,70,61,1.34,2022-10-26 18:09:09
572,Shingu,JP,33.7333,135.9833,52.43,76,1,6.15,2022-10-26 18:09:10
573,Turukhansk,RU,65.8167,87.9833,-2.2,100,46,2.91,2022-10-26 18:09:11
574,Bijie,CN,27.3125,105.2942,53.08,96,100,3.29,2022-10-26 18:09:14
575,Noumea,NC,-22.2763,166.4572,67.98,86,1,5.93,2022-10-26 18:09:15
576,Aketi,CD,2.7388,23.7833,72.37,94,68,4.5,2022-10-26 18:09:17
577,Kefamenanu,ID,-9.4467,124.4781,74.55,85,100,0.49,2022-10-26 18:07:29
578,Howard Springs,AU,-12.497,131.047,84.11,93,51,5.35,2022-10-26 18:09:18
579,Sumbe,AO,-11.2061,13.8437,76.1,84,45,9.06,2022-10-26 18:09:19
580,Arrecife,ES,28.963,-13.5477,75.18,88,0,11.5,2022-10-26 18:09:19
581,Esperance,AU,-33.8667,121.9,56.55,68,96,12.8,2022-10-26 18:09:20
582,Ovalle,CL,-30.5983,-71.2003,79.63,20,0,8.14,2022-10-26 18:09:21
583,Arona,ES,28.0996,-16.681,70.32,68,20,9.22,2022-10-26 18:09:23
584,Kulunda,RU,52.566,78.9385,41.86,45,100,6.78,2022-10-26 18:09:25
585,Maridi,SS,4.9158,29.4742,72.01,82,76,2.95,2022-10-26 18:09:26
586,Balkanabat,TM,39.5108,54.3671,62.56,50,3,8.52,2022-10-26 18:09:27
587,Zhengjiatun,CN,43.5064,123.5064,37.04,85,1,5.46,2022-10-26 18:09:28
588,Lasa,IT,46.6166,10.7002,53.37,80,52,4.12,2022-10-26 18:09:30
589,Kismayo,SO,-0.3582,42.5454,78.06,83,61,13.29,2022-10-26 18:09:31
590,Ayagoz,KZ,47.9714,80.4392,42.53,85,100,14.9,2022-10-26 18:09:31
591,May Pen,JM,17.9645,-77.2451,89.04,48,66,6.2,2022-10-26 18:09:32
592,Monte Alegre,BR,-2.0078,-54.0692,88.52,52,100,5.17,2022-10-26 18:04:59
593,Badvel,IN,14.75,79.05,73.13,65,0,2.84,2022-10-26 18:10:36
594,Longyan,CN,25.1072,117.0225,60.44,84,5,1.28,2022-10-26 18:10:37
595,Cabuyaro,CO,4.2817,-72.794,90.36,51,97,0.78,2022-10-26 18:10:38
596,Lakatoro,VU,-16.0999,167.4164,77.56,80,0,3.98,2022-10-26 18:10:41
597,Rostovka,RU,55.3842,71.8891,32.9,96,100,10.94,2022-10-26 18:10:44
598,Celestun,MX,20.8667,-90.4,84.34,67,6,7.54,2022-10-26 18:10:45
599,Isla Mujeres,MX,21.2311,-86.731,86.16,62,18,8.25,2022-10-26 18:10:46
600,Helong,CN,42.5397,128.9972,43.03,82,100,6.51,2022-10-26 18:06:05
601,Bacolod,PH,10.6667,122.95,77.85,88,100,5.75,2022-10-26 18:10:48
602,Balabac,PH,7.9868,117.0645,80.38,82,100,4.99,2022-10-26 18:10:48
603,Sanmenxia,CN,34.7747,111.1814,52.54,77,63,6.15,2022-10-26 18:10:49
604,Montemarciano,IT,43.6389,13.3075,67.51,89,3,2.3,2022-10-26 18:10:50
605,Selma,US,36.5708,-119.6121,64.22,50,0,4.61,2022-10-26 18:10:50
606,Skibbereen,IE,51.55,-9.2667,58.1,83,45,16.67,2022-10-26 18:10:53
607,Sinop,TR,41.7711,34.8709,52.99,83,43,4.99,2022-10-26 18:10:55
608,Mabaruma,GY,8.2,-59.7833,84.78,70,100,6.08,2022-10-26 18:10:57
609,Raasiku,EE,59.3664,25.1831,50.56,97,99,10.18,2022-10-26 18:10:59
610,Austin,US,30.2672,-97.7431,77.14,36,0,5.01,2022-10-26 18:10:02
611,Ishigaki,JP,24.3448,124.1572,77.22,68,94,16.55,2022-10-26 18:11:00
612,Kangaatsiaq,GL,68.3065,-53.4641,28.17,76,100,8.14,2022-10-26 18:11:01
613,Tazovskiy,RU,67.4667,78.7,19.56,95,46,11.05,2022-10-26 18:11:02
614,Lucapa,AO,-8.4192,20.7447,71.55,77,98,5.41,2022-10-26 18:11:03
615,Birao,CF,10.2849,22.7882,77.68,36,82,5.1,2022-10-26 18:11:05
616,Usakos,NA,-22.0,15.6,79.75,28,5,11.7,2022-10-26 18:11:06
617,Corinth,GR,37.9407,22.9573,70.72,56,0,2.55,2022-10-26 18:11:09
618,Svetlogorsk,BY,52.6333,29.7333,48.43,94,64,8.3,2022-10-26 18:11:13
619,Oriximina,BR,-1.7656,-55.8661,88.39,56,100,3.62,2022-10-26 18:11:15
620,Grand Gaube,MU,-20.0064,57.6608,73.38,69,4,5.01,2022-10-26 18:11:16
621,Vanimo,PG,-2.6741,141.3028,76.86,87,79,2.55,2022-10-26 18:11:17
622,Khakhea,BW,-24.6895,23.494,75.61,46,84,23.47,2022-10-26 18:11:19
623,Soligalich,RU,59.0778,42.2864,34.47,73,100,10.49,2022-10-26 18:11:21
624,Chipata,ZM,-13.6333,32.65,81.54,31,66,7.27,2022-10-26 18:11:25
625,Waddan,LY,29.1614,16.139,73.47,34,0,10.74,2022-10-26 18:11:30
626,Hami,CN,42.8,93.45,52.47,36,8,6.33,2022-10-26 18:11:55
627,Manakara,MG,-22.1333,48.0167,72.3,88,95,9.48,2022-10-26 18:11:56
628,Port-Gentil,GA,-0.7193,8.7815,82.36,83,40,11.5,2022-10-26 18:11:57
629,Kichera,RU,55.9375,110.0997,21.79,76,74,5.7,2022-10-26 18:11:58
630,Kisangani,CD,0.5167,25.2,71.51,98,77,0.83,2022-10-26 18:11:58
631,Wonthaggi,AU,-38.6044,145.5913,58.82,87,97,15.64,2022-10-26 18:11:59
632,Petatlan,MX,17.5167,-101.2667,87.6,67,27,6.29,2022-10-26 18:12:00
633,Deniliquin,AU,-35.5333,144.9667,53.56,92,74,8.48,2022-10-26 18:12:02
634,Kungurtug,RU,50.5994,97.5228,20.44,67,100,1.21,2022-10-26 18:12:04
635,Ucluelet,CA,48.9329,-125.5528,45.09,93,100,0.58,2022-10-26 18:12:11
636,Mogadishu,SO,2.0371,45.3438,78.67,82,90,11.56,2022-10-26 18:10:17
637,Acapulco,MX,16.8634,-99.8901,82.22,83,100,8.05,2022-10-26 18:09:08
638,Ngunguru,NZ,-35.6167,174.5,55.9,83,47,5.03,2022-10-26 18:12:16
639,Yatou,CN,37.15,122.3833,52.57,68,45,2.98,2022-10-26 18:12:17
640,Kahului,US,20.8947,-156.47,82.42,79,40,13.8,2022-10-26 18:13:22
641,Talara,PE,-4.5772,-81.2719,74.16,60,0,13.8,2022-10-26 18:13:22
642,Tyrma,RU,50.0833,132.1667,32.18,93,98,3.51,2022-10-26 18:13:24
643,Kars,TR,40.602,43.095,41.45,75,75,3.44,2022-10-26 18:13:26
644,Kollam,IN,8.8833,76.6,77.74,79,3,1.86,2022-10-26 18:13:28
645,Chernenko,RU,44.365,39.3103,53.29,82,98,3.6,2022-10-26 18:13:29
646,Abnub,EG,27.2696,31.1511,76.17,44,1,7.78,2022-10-26 18:13:30
647,Do Gonbadan,IR,30.3586,50.7981,77.09,29,0,0.0,2022-10-26 18:13:32
648,Lac Du Bonnet,CA,50.2536,-96.0612,37.06,59,42,5.79,2022-10-26 18:13:34
649,Balykshi,KZ,47.0667,51.8667,32.0,69,0,8.95,2022-10-26 18:13:41
650,Oranjestad,AW,12.524,-70.027,78.82,84,100,12.19,2022-10-26 18:10:55
651,Dunedin,NZ,-45.8742,170.5036,45.81,93,100,1.01,2022-10-26 18:13:42
652,Shache,CN,38.4167,77.2406,54.45,25,43,2.68,2022-10-26 18:13:45
653,Krasnotorka,UA,48.682,37.5327,53.1,96,100,9.33,2022-10-26 18:13:16
654,Baykit,RU,61.67,96.37,29.8,91,100,4.54,2022-10-26 18:13:46
655,Shahrud,IR,36.4182,54.9763,55.54,46,12,3.83,2022-10-26 18:13:50
656,Tabuk,PH,17.4189,121.4443,68.79,90,100,3.8,2022-10-26 18:13:51
657,Kenai,US,60.5544,-151.2583,30.15,98,100,4.61,2022-10-26 18:13:52
658,Leshukonskoye,RU,64.8989,45.7622,30.87,78,100,10.36,2022-10-26 18:13:53
659,Vardo,NO,70.3705,31.1107,37.38,81,100,13.8,2022-10-26 18:13:55
660,Egvekinot,RU,66.3167,-179.1667,3.04,95,72,5.06,2022-10-26 18:13:56
661,Pampierstad,ZA,-27.7832,24.6877,80.78,12,100,8.93,2022-10-26 18:13:59
662,Puerto Carreno,CO,6.189,-67.4859,89.56,57,100,4.05,2022-10-26 18:14:03
663,Batticaloa,LK,7.7102,81.6924,81.72,64,89,6.31,2022-10-26 18:14:04
664,Ambulu,ID,-8.345,113.6058,74.97,92,100,2.62,2022-10-26 18:14:05
665,Sapa,PH,5.1544,120.3241,80.8,82,100,9.37,2022-10-26 18:14:06
666,Tallahassee,US,30.4383,-84.2807,78.75,51,0,9.22,2022-10-26 18:13:16
667,Chino,US,34.0122,-117.6889,73.6,52,75,3.44,2022-10-26 18:13:29
668,Chibombo,ZM,-14.6569,28.0706,78.76,32,58,5.39,2022-10-26 18:14:13
669,Fort Morgan,US,40.2503,-103.8,50.65,40,0,9.22,2022-10-26 18:12:43
670,Pasni,PK,25.2631,63.471,82.63,55,0,8.55,2022-10-26 18:14:16
671,Ban Nahin,LA,18.2418,104.2122,71.44,89,89,3.47,2022-10-26 18:14:16
672,Tamale,GH,9.4008,-0.8393,86.94,50,69,6.62,2022-10-26 18:14:20
673,Mayumba,GA,-3.432,10.6554,77.29,91,94,3.89,2022-10-26 18:14:22
674,Kuytun,RU,54.3419,101.5036,25.84,72,7,5.3,2022-10-26 18:14:25
675,Kendari,ID,-3.945,122.4989,75.56,93,85,3.47,2022-10-26 18:14:26
676,Marshfield,US,44.6689,-90.1718,44.55,57,75,13.8,2022-10-26 18:14:28
677,Aksehir,TR,38.3575,31.4164,55.63,39,3,2.84,2022-10-26 18:14:30
678,Nouakchott,MR,18.0858,-15.9785,85.93,61,24,16.04,2022-10-26 18:14:22
679,Qom,IR,34.6401,50.8764,66.65,34,2,3.38,2022-10-26 18:14:34
680,Mongo,TD,12.1844,18.693,84.36,23,12,2.68,2022-10-26 18:14:35
681,Mercedes,AR,-34.6515,-59.4307,78.94,42,63,21.59,2022-10-26 18:14:37
